%time,field.Header.seq,field.Header.stamp,field.Header.frame_id,field.Latitude,field.Longitude,field.Altitude,field.utm_easting,field.utm_northing,field.zone,field.letter
1698235889286707239,0,1698235889285655975,GPS1_Frame,42.33702,-71.08986,17.1,327835.4230602797,4689311.422139308,19.0,T
1698235890303092877,0,1698235890302312850,GPS1_Frame,42.33702,-71.08986,17.1,327835.4230602797,4689311.422139308,19.0,T
1698235891302902360,0,1698235891301759719,GPS1_Frame,42.33702,-71.08986,17.1,327835.4230602797,4689311.422139308,19.0,T
1698235892285290611,0,1698235892284220218,GPS1_Frame,42.33702,-71.08986,17.1,327835.4230602797,4689311.422139308,19.0,T
1698235893284825018,0,1698235893283842563,GPS1_Frame,42.33702,-71.08986,17.2,327835.4230602797,4689311.422139308,19.0,T
1698235894301093062,0,1698235894300181150,GPS1_Frame,42.33702,-71.08986,17.2,327835.4230602797,4689311.422139308,19.0,T
1698235895284147666,0,1698235895283199071,GPS1_Frame,42.33702,-71.08986,17.2,327835.4230602797,4689311.422139308,19.0,T
1698235896302318554,0,1698235896301437616,GPS1_Frame,42.33702,-71.08986,17.2,327835.4230602797,4689311.422139308,19.0,T
1698235897284198957,0,1698235897283457994,GPS1_Frame,42.33702,-71.08986,17.2,327835.4230602797,4689311.422139308,19.0,T
1698235898283090729,0,1698235898282289505,GPS1_Frame,42.33702,-71.08986,17.2,327835.4230602797,4689311.422139308,19.0,T
1698235899300051735,0,1698235899299141168,GPS1_Frame,42.33702,-71.08986,17.2,327835.4230602797,4689311.422139308,19.0,T
1698235900299823831,0,1698235900299037933,GPS1_Frame,42.33702,-71.08986,17.2,327835.4230602797,4689311.422139308,19.0,T
1698235901283157061,0,1698235901282240867,GPS1_Frame,42.33702,-71.08986,17.2,327835.4230602797,4689311.422139308,19.0,T
1698235902283173281,0,1698235902282383203,GPS1_Frame,42.33702,-71.08986,17.2,327835.4230602797,4689311.422139308,19.0,T
1698235903282654311,0,1698235903281765460,GPS1_Frame,42.33702,-71.08986,17.2,327835.4230602797,4689311.422139308,19.0,T
1698235904282821933,0,1698235904282000541,GPS1_Frame,42.33702,-71.08986,17.2,327835.4230602797,4689311.422139308,19.0,T
1698235905281880397,0,1698235905281006336,GPS1_Frame,42.33702,-71.08986,17.2,327835.4230602797,4689311.422139308,19.0,T
1698235906280569750,0,1698235906279380559,GPS1_Frame,42.33702,-71.08986,17.2,327835.4230602797,4689311.422139308,19.0,T
1698235907281041441,0,1698235907280151128,GPS1_Frame,42.33702,-71.08986,17.2,327835.4230602797,4689311.422139308,19.0,T
1698235908281162371,0,1698235908280216693,GPS1_Frame,42.33702,-71.08986,17.2,327835.4230602797,4689311.422139308,19.0,T
1698235909280525083,0,1698235909279596090,GPS1_Frame,42.33702,-71.08986,17.2,327835.4230602797,4689311.422139308,19.0,T
1698235910280532216,0,1698235910279528856,GPS1_Frame,42.33702,-71.08986,17.2,327835.4230602797,4689311.422139308,19.0,T
1698235911280306793,0,1698235911279502391,GPS1_Frame,42.33702,-71.08986,17.2,327835.4230602797,4689311.422139308,19.0,T
1698235912280444203,0,1698235912279598474,GPS1_Frame,42.33702,-71.08986,17.2,327835.4230602797,4689311.422139308,19.0,T
1698235913280700049,0,1698235913279802322,GPS1_Frame,42.33702,-71.08986,17.2,327835.4230602797,4689311.422139308,19.0,T
1698235914280812150,0,1698235914279927968,GPS1_Frame,42.33702,-71.08986,17.2,327835.4230602797,4689311.422139308,19.0,T
1698235915279451324,0,1698235915278655767,GPS1_Frame,42.33702,-71.08986,17.2,327835.4230602797,4689311.422139308,19.0,T
1698235916280215706,0,1698235916279309988,GPS1_Frame,42.33702,-71.08986,17.2,327835.4230602797,4689311.422139308,19.0,T
1698235917279987280,0,1698235917279186487,GPS1_Frame,42.33702,-71.08986,17.2,327835.4230602797,4689311.422139308,19.0,T
1698235918278783977,0,1698235918277835845,GPS1_Frame,42.33702,-71.08986,17.2,327835.4230602797,4689311.422139308,19.0,T
1698235919280396113,0,1698235919279447317,GPS1_Frame,42.33702,-71.08986,17.2,327835.4230602797,4689311.422139308,19.0,T
1698235920280941311,0,1698235920280123710,GPS1_Frame,42.33702,-71.08986,17.2,327835.4230602797,4689311.422139308,19.0,T
1698235921280473653,0,1698235921279522895,GPS1_Frame,42.33702,-71.08986,17.2,327835.4230602797,4689311.422139308,19.0,T
1698235922279506596,0,1698235922278671503,GPS1_Frame,42.33702,-71.08986,17.2,327835.4230602797,4689311.422139308,19.0,T
1698235923279808778,0,1698235923278967142,GPS1_Frame,42.33702,-71.08986,17.2,327835.4230602797,4689311.422139308,19.0,T
1698235924279937802,0,1698235924279072761,GPS1_Frame,42.33702,-71.08986,17.2,327835.4230602797,4689311.422139308,19.0,T
1698235925280432858,0,1698235925279245615,GPS1_Frame,42.33702,-71.08986,17.2,327835.4230602797,4689311.422139308,19.0,T
1698235926281298495,0,1698235926280292510,GPS1_Frame,42.33702,-71.08986,17.2,327835.4230602797,4689311.422139308,19.0,T
1698235927280339984,0,1698235927279337406,GPS1_Frame,42.33702,-71.08986,17.2,327835.4230602797,4689311.422139308,19.0,T
1698235928279852226,0,1698235928278966665,GPS1_Frame,42.33702,-71.08986,17.2,327835.4230602797,4689311.422139308,19.0,T
1698235929279847689,0,1698235929278933048,GPS1_Frame,42.33702,-71.08986,17.2,327835.4230602797,4689311.422139308,19.0,T
1698235930279652324,0,1698235930278559684,GPS1_Frame,42.33702,-71.08986,17.2,327835.4230602797,4689311.422139308,19.0,T
1698235931279494874,0,1698235931278641462,GPS1_Frame,42.33702,-71.08986,17.2,327835.4230602797,4689311.422139308,19.0,T
1698235932279298775,0,1698235932278354883,GPS1_Frame,42.33702,-71.08986,17.2,327835.4230602797,4689311.422139308,19.0,T
1698235933279967952,0,1698235933279063224,GPS1_Frame,42.33702,-71.08986,17.1,327835.4230602797,4689311.422139308,19.0,T
1698235934278171315,0,1698235934277282476,GPS1_Frame,42.33702,-71.08986,17.1,327835.4230602797,4689311.422139308,19.0,T
1698235935278409920,0,1698235935277250528,GPS1_Frame,42.33702,-71.08986,17.1,327835.4230602797,4689311.422139308,19.0,T
1698235936278457161,0,1698235936277491807,GPS1_Frame,42.33702,-71.08986,17.1,327835.4230602797,4689311.422139308,19.0,T
1698235937278219078,0,1698235937277299642,GPS1_Frame,42.33702,-71.08986,17.1,327835.4230602797,4689311.422139308,19.0,T
1698235938278782231,0,1698235938277769804,GPS1_Frame,42.337021666666665,-71.08986,16.8,327835.42760866485,4689311.607209944,19.0,T
1698235939295267040,0,1698235939294306993,GPS1_Frame,42.337021666666665,-71.08985833333334,16.4,327835.5649159353,4689311.603835416,19.0,T
1698235940278479908,0,1698235940277502298,GPS1_Frame,42.33701833333333,-71.08985333333334,16.0,327835.96774100745,4689311.223570573,19.0,T
1698235941295846498,0,1698235941294971704,GPS1_Frame,42.33701333333333,-71.08984166666667,15.7,327836.91524692276,4689310.644737099,19.0,T
1698235942295188520,0,1698235942294223308,GPS1_Frame,42.33700833333333,-71.08982333333333,15.5,327838.41198219225,4689310.052405855,19.0,T
1698235943279148107,0,1698235943277984857,GPS1_Frame,42.337001666666666,-71.089795,15.3,327840.7280133227,4689309.254757708,19.0,T
1698235944281253575,0,1698235944280059814,GPS1_Frame,42.336996666666664,-71.08976333333334,15.2,327843.32320777315,4689308.635432227,19.0,T
1698235945298270480,0,1698235945297118425,GPS1_Frame,42.336995,-71.08972833333333,15.3,327846.2021134994,4689308.379500349,19.0,T
1698235946280252868,0,1698235946279357194,GPS1_Frame,42.336996666666664,-71.08969166666667,15.4,327849.2274227353,4689308.49033667,19.0,T
1698235947298244813,0,1698235947297101020,GPS1_Frame,42.337005,-71.08965666666667,15.5,327852.1336162451,4689309.344831027,19.0,T
1698235948282526777,0,1698235948281082868,GPS1_Frame,42.33701833333333,-71.089625,15.6,327854.77883803705,4689310.761286764,19.0,T
1698235949282426729,0,1698235949281381845,GPS1_Frame,42.33703666666667,-71.089595,15.6,327857.30039490375,4689312.736329475,19.0,T
1698235950299885912,0,1698235950299061536,GPS1_Frame,42.33706,-71.08957,15.7,327859.4236720313,4689315.276707131,19.0,T
1698235951299848275,0,1698235951299045085,GPS1_Frame,42.337086666666664,-71.08955333333333,15.7,327860.8695074307,4689318.204096802,19.0,T
1698235952283432246,0,1698235952282613039,GPS1_Frame,42.33711666666667,-71.08954833333334,15.8,327861.36328765,4689321.525246146,19.0,T
1698235953284739560,0,1698235953283736467,GPS1_Frame,42.337145,-71.089555,15.8,327860.89137081755,4689324.68494309,19.0,T
1698235954283058981,0,1698235954282181978,GPS1_Frame,42.33716833333333,-71.08957333333333,15.8,327859.4446626322,4689327.31304659,19.0,T
1698235955283765081,0,1698235955282869338,GPS1_Frame,42.33718666666667,-71.0896,15.7,327857.2977775958,4689329.402809042,19.0,T
1698235956284774478,0,1698235956283771276,GPS1_Frame,42.33719833333333,-71.08963333333334,15.6,327854.5834747444,4689330.765786278,19.0,T
1698235957285008573,0,1698235957284062862,GPS1_Frame,42.337201666666665,-71.08967166666666,15.5,327851.4345123782,4689331.213534071,19.0,T
1698235958284746825,0,1698235958283743381,GPS1_Frame,42.337195,-71.08971333333334,15.5,327847.9836481074,4689330.557608037,19.0,T
1698235959284756169,0,1698235959283961772,GPS1_Frame,42.337178333333334,-71.08975166666667,15.4,327844.7801079409,4689328.784511126,19.0,T
1698235960286075480,0,1698235960285053730,GPS1_Frame,42.337155,-71.08978333333333,15.4,327842.10760105425,4689326.257635427,19.0,T
1698235961286396792,0,1698235961285363435,GPS1_Frame,42.337125,-71.089805,15.5,327840.24074134714,4689322.970231442,19.0,T
1698235962285139447,0,1698235962284098386,GPS1_Frame,42.337091666666666,-71.08981333333334,15.5,327839.46324029315,4689319.285690919,19.0,T
1698235963284277149,0,1698235963283456563,GPS1_Frame,42.33705833333333,-71.08980666666666,15.5,327839.9215032933,4689315.570780373,19.0,T
1698235964284817999,0,1698235964283697366,GPS1_Frame,42.33703166666667,-71.08978666666667,15.4,327841.4964179444,4689312.569157059,19.0,T
1698235965284490401,0,1698235965283467769,GPS1_Frame,42.33701166666667,-71.08975666666667,15.4,327843.9133705008,4689310.287570469,19.0,T
1698235966284110563,0,1698235966283198356,GPS1_Frame,42.337001666666666,-71.08972,15.6,327846.90684245335,4689309.102911336,19.0,T
1698235967284676008,0,1698235967283796310,GPS1_Frame,42.337,-71.08968,15.6,327850.197669988,4689308.836858201,19.0,T
1698235968286381162,0,1698235968285286188,GPS1_Frame,42.33700666666667,-71.08964166666667,15.7,327853.37392990896,4689309.499533961,19.0,T
1698235969285850084,0,1698235969284859418,GPS1_Frame,42.337021666666665,-71.08960666666667,15.7,327856.2983137445,4689311.094312547,19.0,T
1698235970289609215,0,1698235970288573980,GPS1_Frame,42.337043333333334,-71.08957666666667,15.6,327858.828965583,4689313.439497056,19.0,T
1698235971289066955,0,1698235971288145303,GPS1_Frame,42.337066666666665,-71.08955666666667,15.5,327860.54032042564,4689315.989997262,19.0,T
1698235972288972832,0,1698235972288013935,GPS1_Frame,42.337091666666666,-71.08954666666666,15.4,327861.43237906555,4689318.74581259,19.0,T
1698235973289246191,0,1698235973288268566,GPS1_Frame,42.337113333333335,-71.089545,15.5,327861.6288063596,4689321.148356826,19.0,T
1698235974289570101,0,1698235974288575887,GPS1_Frame,42.33712833333333,-71.08954666666666,15.7,327861.532428693,4689322.81736657,19.0,T
1698235975289381653,0,1698235975288462162,GPS1_Frame,42.33714,-71.08955,15.8,327861.2896486559,4689324.119609078,19.0,T
1698235976289763714,0,1698235976288661479,GPS1_Frame,42.33714666666667,-71.08955166666667,15.9,327861.1705325446,4689324.863265656,19.0,T
1698235977289951498,0,1698235977288957834,GPS1_Frame,42.33715333333333,-71.08955333333333,15.9,327861.05141646037,4689325.606922237,19.0,T
1698235978290016811,0,1698235978288972139,GPS1_Frame,42.33716,-71.08955666666667,16.0,327860.79499344097,4689326.3539528595,19.0,T
1698235979289632221,0,1698235979288629770,GPS1_Frame,42.33716666666667,-71.08956,15.9,327860.53857048205,4689327.100983497,19.0,T
1698235980290354617,0,1698235980289373397,GPS1_Frame,42.33717166666667,-71.08956333333333,15.9,327860.2775998333,4689327.662943507,19.0,T
1698235981290503329,0,1698235981289659976,GPS1_Frame,42.337175,-71.08956666666667,15.8,327860.0120814656,4689328.039832891,19.0,T
1698235982289812830,0,1698235982288754463,GPS1_Frame,42.337178333333334,-71.08956833333333,15.7,327859.88387006056,4689328.413348225,19.0,T
1698235983290561073,0,1698235983289319515,GPS1_Frame,42.337181666666666,-71.08957333333333,15.7,327859.4810448253,4689328.793611692,19.0,T
1698235984291094389,0,1698235984290147066,GPS1_Frame,42.33718833333333,-71.08958166666666,15.7,327858.81270139606,4689329.550764618,19.0,T
1698235985291561687,0,1698235985290569543,GPS1_Frame,42.337196666666664,-71.08959666666667,15.7,327857.5996783763,4689330.506484654,19.0,T
1698235986292257212,0,1698235986291446208,GPS1_Frame,42.337205,-71.08962166666667,15.7,327855.56281446334,4689331.482449742,19.0,T
1698235987291533904,0,1698235987290471076,GPS1_Frame,42.33720666666667,-71.08965333333333,15.7,327852.958531885,4689331.731629652,19.0,T
1698235988291888735,0,1698235988290994644,GPS1_Frame,42.337203333333335,-71.08969,15.6,327849.92868475337,4689331.435721374,19.0,T
1698235989291807334,0,1698235989290775537,GPS1_Frame,42.33719166666667,-71.089725,15.5,327847.0134036492,4689330.211086885,19.0,T
1698235990307820726,0,1698235990306857824,GPS1_Frame,42.337175,-71.08975833333334,15.5,327844.2217838689,4689328.427867293,19.0,T
1698235991292051891,0,1698235991291212558,GPS1_Frame,42.337151666666664,-71.089785,15.5,327841.96119760606,4689325.890868557,19.0,T
1698235992310281868,0,1698235992309241294,GPS1_Frame,42.33712666666667,-71.08980666666666,15.6,327840.10798257834,4689323.158676525,19.0,T
1698235993309898538,0,1698235993308812618,GPS1_Frame,42.3371,-71.08981833333333,15.7,327839.0740604431,4689320.221167487,19.0,T
1698235994292320409,0,1698235994291331291,GPS1_Frame,42.33707,-71.08981833333333,15.7,327838.99219104304,4689316.889896007,19.0,T
1698235995292799407,0,1698235995291757822,GPS1_Frame,42.337043333333334,-71.08980666666666,15.6,327839.88056884904,4689313.905144643,19.0,T
1698235996309584306,0,1698235996308643341,GPS1_Frame,42.33702,-71.08978666666667,15.6,327841.46458036365,4689311.273662608,19.0,T
1698235997292925574,0,1698235997291852712,GPS1_Frame,42.337001666666666,-71.08976,15.5,327843.6114669217,4689309.18389539,19.0,T
1698235998309778221,0,1698235998308951139,GPS1_Frame,42.33699166666667,-71.08972833333333,15.5,327846.19301730767,4689308.009359079,19.0,T
1698235999293267825,0,1698235999292267322,GPS1_Frame,42.33698833333333,-71.089695,15.7,327848.9300679702,4689307.57173202,19.0,T
1698236000293648803,0,1698236000292661905,GPS1_Frame,42.33699333333333,-71.08966,15.9,327851.82716600236,4689308.056084998,19.0,T
1698236001310643567,0,1698236001309626579,GPS1_Frame,42.337003333333335,-71.08962833333334,16.1,327854.4632925653,4689309.102399368,19.0,T
1698236002310145144,0,1698236002309223175,GPS1_Frame,42.33701833333333,-71.0896,16.2,327856.8384471826,4689310.71067482,19.0,T
1698236003293763457,0,1698236003292721986,GPS1_Frame,42.33703833333333,-71.08957666666667,16.3,327858.81532227417,4689312.884285156,19.0,T
1698236004295377344,0,1698236004294327974,GPS1_Frame,42.33706166666666,-71.08956,16.3,327860.2520628776,4689315.441533444,19.0,T
1698236005294134887,0,1698236005293178558,GPS1_Frame,42.337085,-71.08955166666667,16.2,327861.0022668401,4689318.015652135,19.0,T
1698236006293760484,0,1698236006292727947,GPS1_Frame,42.33711,-71.08955166666667,16.2,327861.07048264204,4689320.791711665,19.0,T
1698236007293676781,0,1698236007292732477,GPS1_Frame,42.337135,-71.08956,16.3,327860.45216336555,4689323.584641397,19.0,T
1698236008294281015,0,1698236008293216228,GPS1_Frame,42.337158333333335,-71.08958,16.3,327858.8681481099,4689326.21611906,19.0,T
1698236009294276057,0,1698236009293272733,GPS1_Frame,42.33718,-71.08961166666667,16.4,327856.3184377938,4689328.686145332,19.0,T
1698236010294498732,0,1698236010293515682,GPS1_Frame,42.33719166666667,-71.08965,16.4,327853.1922141267,4689330.059245509,19.0,T
1698236011294493641,0,1698236011293327808,GPS1_Frame,42.33719166666667,-71.08969333333333,16.3,327849.62223474396,4689330.146975416,19.0,T
1698236012294465704,0,1698236012293513536,GPS1_Frame,42.337181666666666,-71.08973333333333,16.3,327846.29958040745,4689329.117534648,19.0,T
1698236013294493261,0,1698236013293574333,GPS1_Frame,42.33716166666667,-71.08976666666666,16.3,327843.4988636308,4689326.964174044,19.0,T
1698236014294224778,0,1698236014293190956,GPS1_Frame,42.337136666666666,-71.08979166666667,16.3,327841.3710354314,4689324.238730466,19.0,T
1698236015294408419,0,1698236015293414831,GPS1_Frame,42.337106666666664,-71.089805,16.3,327840.19071033684,4689320.934454419,19.0,T
1698236016295882757,0,1698236016295100927,GPS1_Frame,42.33707666666667,-71.089805,16.3,327840.10884144914,4689317.603182939,19.0,T
1698236017295502323,0,1698236017294528961,GPS1_Frame,42.33705,-71.08979333333333,16.2,327840.99721960607,4689314.618431724,19.0,T
1698236018294519127,0,1698236018293518543,GPS1_Frame,42.337025,-71.08977166666666,16.2,327842.71399041126,4689311.7985049235,19.0,T
1698236019294684497,0,1698236019293729782,GPS1_Frame,42.33700833333333,-71.08974166666667,16.2,327845.1400398783,4689309.887060044,19.0,T
1698236020294998536,0,1698236020293963670,GPS1_Frame,42.337,-71.089715,16.3,327847.3142163286,4689308.9077178035,19.0,T
1698236021294803059,0,1698236021293778419,GPS1_Frame,42.336998333333334,-71.08968833333333,16.4,327849.50658539357,4689308.668658794,19.0,T
1698236022294971087,0,1698236022293997764,GPS1_Frame,42.337001666666666,-71.08966,16.4,327851.8499057392,4689308.981438166,19.0,T
1698236023294660105,0,1698236023293697834,GPS1_Frame,42.33701,-71.08962833333334,16.4,327854.4814840821,4689309.8426819015,19.0,T
1698236024295229380,0,1698236024294232845,GPS1_Frame,42.337025,-71.08959666666667,16.4,327857.13125298393,4689311.444209142,19.0,T
1698236025295412346,0,1698236025294440269,GPS1_Frame,42.337048333333335,-71.08956833333333,16.4,327859.52914494945,4689313.977838632,19.0,T
1698236026294949945,0,1698236026294038057,GPS1_Frame,42.33707833333333,-71.08955166666667,16.5,327860.98407596507,4689317.275369596,19.0,T
1698236027295182358,0,1698236027294260263,GPS1_Frame,42.337115,-71.08954833333334,16.5,327861.3587399355,4689321.34017551,19.0,T
1698236028296410668,0,1698236028295461416,GPS1_Frame,42.33715333333333,-71.08955666666667,16.7,327860.7768024961,4689325.613670313,19.0,T
1698236029295823300,0,1698236029295045137,GPS1_Frame,42.33719,-71.08956666666667,16.7,327860.05301130813,4689329.7054686295,19.0,T
1698236030290661250,0,1698236030289678335,GPS1_Frame,42.337228333333336,-71.08958,16.7,327859.0591553014,4689333.989085865,19.0,T
1698236031293566243,0,1698236031292720556,GPS1_Frame,42.337266666666665,-71.08959333333334,16.7,327858.0653007033,4689338.272703301,19.0,T
1698236032293244172,0,1698236032292283058,GPS1_Frame,42.33730666666666,-71.089605,16.8,327857.2133020258,4689342.738017464,19.0,T
1698236033295183110,0,1698236033294245481,GPS1_Frame,42.33734666666667,-71.08962,16.9,327856.0866915311,4689347.210080077,19.0,T
1698236034294201331,0,1698236034293186187,GPS1_Frame,42.33738666666667,-71.08963333333334,16.9,327855.0973891595,4689351.678768774,19.0,T
1698236035294238121,0,1698236035293264627,GPS1_Frame,42.337428333333335,-71.08964666666667,17.0,327854.11263622384,4689356.332528323,19.0,T
1698236036294468652,0,1698236036293484210,GPS1_Frame,42.33747,-71.08965833333333,17.1,327853.2651911253,4689360.98291387,19.0,T
1698236037295294372,0,1698236037294277191,GPS1_Frame,42.337511666666664,-71.08966666666667,17.4,327852.692359789,4689365.626551135,19.0,T
1698236038294430678,0,1698236038293605566,GPS1_Frame,42.33755,-71.08967166666666,17.6,327852.3850456341,4689369.893298735,19.0,T
1698236039294864538,0,1698236039293867826,GPS1_Frame,42.337581666666665,-71.08967666666666,17.7,327852.0595399166,4689373.419763786,19.0,T
1698236040295803829,0,1698236040295112609,GPS1_Frame,42.337605,-71.08968333333334,17.8,327851.57398842403,4689376.024249873,19.0,T
1698236041312346026,0,1698236041311284542,GPS1_Frame,42.337621666666664,-71.08968833333333,17.8,327851.2075510592,4689377.885079149,19.0,T
1698236042295850474,0,1698236042294754028,GPS1_Frame,42.337628333333335,-71.08969166666667,17.7,327850.9511314193,4689378.632110279,19.0,T
1698236043313048356,0,1698236043311938047,GPS1_Frame,42.337628333333335,-71.08969166666667,17.6,327850.9511314193,4689378.632110279,19.0,T
1698236044312970991,0,1698236044311974048,GPS1_Frame,42.337628333333335,-71.08969166666667,17.6,327850.9511314193,4689378.632110279,19.0,T
1698236045295208656,0,1698236045294278144,GPS1_Frame,42.337628333333335,-71.08969166666667,17.6,327850.9511314193,4689378.632110279,19.0,T
1698236046296999367,0,1698236046295952081,GPS1_Frame,42.337628333333335,-71.08969166666667,17.6,327850.9511314193,4689378.632110279,19.0,T
1698236047312133748,0,1698236047311261177,GPS1_Frame,42.337628333333335,-71.08969166666667,17.6,327850.9511314193,4689378.632110279,19.0,T
1698236048295832045,0,1698236048294999599,GPS1_Frame,42.337628333333335,-71.08969333333333,17.9,327850.8138254719,4689378.635484545,19.0,T
1698236049313134817,0,1698236049312276363,GPS1_Frame,42.337628333333335,-71.08969333333333,17.9,327850.8138254719,4689378.635484545,19.0,T
1698236050295865869,0,1698236050294846296,GPS1_Frame,42.337628333333335,-71.08969333333333,17.9,327850.8138254719,4689378.635484545,19.0,T
1698236051295934504,0,1698236051295065402,GPS1_Frame,42.337628333333335,-71.08969333333333,17.9,327850.8138254719,4689378.635484545,19.0,T
1698236052313804464,0,1698236052312829971,GPS1_Frame,42.337628333333335,-71.08969333333333,17.9,327850.8138254719,4689378.635484545,19.0,T
1698236053313783115,0,1698236053312792062,GPS1_Frame,42.33763,-71.089695,17.9,327850.68106760154,4689378.823929464,19.0,T
1698236054296912779,0,1698236054295808553,GPS1_Frame,42.33763833333333,-71.0897,18.0,327850.29189022013,4689379.759405545,19.0,T
1698236055295756519,0,1698236055294826269,GPS1_Frame,42.337651666666666,-71.08971333333334,18.2,327849.22982776957,4689381.266965074,19.0,T
1698236056296724468,0,1698236056295670032,GPS1_Frame,42.33767,-71.08973333333333,18.4,327847.6321868191,4689383.343234048,19.0,T
1698236057296800336,0,1698236057295762538,GPS1_Frame,42.337693333333334,-71.089755,18.6,327845.9108856693,4689385.978089746,19.0,T
1698236058295722961,0,1698236058294806718,GPS1_Frame,42.33772166666667,-71.089775,18.9,327844.340536405,4689389.164783481,19.0,T
1698236059295729371,0,1698236059294760942,GPS1_Frame,42.33775333333333,-71.08979333333333,19.2,327842.9165909579,4689392.718244507,19.0,T
1698236060296018220,0,1698236060295170783,GPS1_Frame,42.337786666666666,-71.08981,19.6,327841.63450103026,4689396.4534020815,19.0,T
1698236061295925218,0,1698236061295119047,GPS1_Frame,42.33781833333333,-71.08982166666667,20.3,327840.7597808372,4689399.99336585,19.0,T
1698236062294901571,0,1698236062293889045,GPS1_Frame,42.33785,-71.08983166666667,20.6,327840.0223671258,4689403.529955278,19.0,T
1698236063295238324,0,1698236063294131755,GPS1_Frame,42.33788333333333,-71.08984,20.8,327839.42680811055,4689407.2482409775,19.0,T
1698236064296595983,0,1698236064295553445,GPS1_Frame,42.337918333333334,-71.08984666666667,21.5,327838.9731036351,4689411.148222909,19.0,T
1698236065295513857,0,1698236065294477462,GPS1_Frame,42.33795333333333,-71.08985166666666,21.8,327838.6567050766,4689415.044830378,19.0,T
1698236066294386106,0,1698236066293375015,GPS1_Frame,42.33799166666667,-71.089855,22.1,327838.48670912324,4689419.308204689,19.0,T
1698236067294632390,0,1698236067293655157,GPS1_Frame,42.338031666666666,-71.08986166666666,22.4,327838.04665191146,4689423.763398783,19.0,T
1698236068295054367,0,1698236068294048309,GPS1_Frame,42.338073333333334,-71.08986833333333,22.6,327837.6111439745,4689428.403663617,19.0,T
1698236069295490938,0,1698236069294480323,GPS1_Frame,42.338115,-71.08987666666667,23.2,327837.0383319643,4689433.0473030945,19.0,T
1698236070295067143,0,1698236070294155836,GPS1_Frame,42.33815666666667,-71.08988833333333,23.7,327836.19091135927,4689437.697691846,19.0,T
1698236071295239471,0,1698236071294362783,GPS1_Frame,42.3382,-71.08990166666666,24.2,327835.2107359861,4689442.53652604,19.0,T
1698236072295301248,0,1698236072294378042,GPS1_Frame,42.33824333333333,-71.089915,24.8,327834.2305622194,4689447.375360449,19.0,T
1698236073295151158,0,1698236073294163465,GPS1_Frame,42.33828666666667,-71.08993166666667,25.3,327832.9757810312,4689452.220944382,19.0,T
1698236074295635646,0,1698236074294742345,GPS1_Frame,42.33833166666667,-71.08995,25.6,327831.5882461043,4689457.25497399,19.0,T
1698236075295312974,0,1698236075294295072,GPS1_Frame,42.338375,-71.08997,25.8,327830.05886037415,4689462.107308012,19.0,T
1698236076296799281,0,1698236076295638561,GPS1_Frame,42.33841666666667,-71.08999,26.1,327828.5249282158,4689466.77457179,19.0,T
1698236077295129174,0,1698236077294095754,GPS1_Frame,42.338456666666666,-71.09001,26.5,327826.9864494875,4689471.256765317,19.0,T
1698236078294130712,0,1698236078293056964,GPS1_Frame,42.338498333333334,-71.09003166666666,26.8,327825.31521776353,4689475.927404773,19.0,T
1698236079294642260,0,1698236079293659448,GPS1_Frame,42.338541666666664,-71.090055,27.0,327823.5112334662,4689480.786490265,19.0,T
1698236080296022381,0,1698236080295113325,GPS1_Frame,42.338585,-71.09007666666666,27.3,327821.8445557771,4689485.642201433,19.0,T
1698236081295946856,0,1698236081295072793,GPS1_Frame,42.33862666666667,-71.09009833333333,27.5,327820.17333159375,4689490.312842417,19.0,T
1698236082296381665,0,1698236082295466661,GPS1_Frame,42.33867166666667,-71.09012333333334,28.0,327818.2366006928,4689495.360375209,19.0,T
1698236083295732158,0,1698236083294813871,GPS1_Frame,42.33871333333333,-71.09014833333333,28.5,327816.29077451664,4689500.037767282,19.0,T
1698236084295849000,0,1698236084295020818,GPS1_Frame,42.33875666666667,-71.09017166666666,28.4,327814.48680386343,4689504.896855639,19.0,T
1698236085297105055,0,1698236085296048402,GPS1_Frame,42.3388,-71.090195,28.6,327812.68283594993,4689509.75594457,19.0,T
1698236086296702159,0,1698236086295817613,GPS1_Frame,42.338845,-71.09022,28.6,327810.7461168013,4689514.803479895,19.0,T
1698236087296593446,0,1698236087295586109,GPS1_Frame,42.33889166666667,-71.09024666666667,28.7,327808.67664688395,4689520.039461743,19.0,T
1698236088294835323,0,1698236088293897867,GPS1_Frame,42.33893833333333,-71.09027333333333,28.6,327806.60718033346,4689525.275444334,19.0,T
1698236089294025797,0,1698236089293197870,GPS1_Frame,42.33898833333333,-71.09030333333334,28.8,327804.27221019776,4689530.888319592,19.0,T
1698236090293730917,0,1698236090292617559,GPS1_Frame,42.33904166666667,-71.09033166666667,29.1,327802.08364617394,4689536.867961867,19.0,T
1698236091309700558,0,1698236091308761835,GPS1_Frame,42.33909333333333,-71.09035833333333,29.3,327800.0278393533,4689542.659158928,19.0,T
1698236092299021563,0,1698236092297990083,GPS1_Frame,42.339145,-71.09038333333334,29.5,327798.1093389208,4689548.446981342,19.0,T
1698236093313788274,0,1698236093312927961,GPS1_Frame,42.339193333333334,-71.09040666666667,29.5,327796.31904500513,4689553.861287577,19.0,T
1698236094313235924,0,1698236094312132120,GPS1_Frame,42.33924,-71.09043,29.3,327794.5242043383,4689559.09052369,19.0,T
1698236095297113985,0,1698236095296054601,GPS1_Frame,42.339285,-71.09045166666667,29.3,327792.8621190961,4689564.131314163,19.0,T
1698236096297428087,0,1698236096296447753,GPS1_Frame,42.339328333333334,-71.09046833333333,29.1,327791.6073933374,4689568.976907802,19.0,T
1698236097297199857,0,1698236097296026468,GPS1_Frame,42.33937,-71.090485,29.1,327790.34811961127,4689573.637431042,19.0,T
1698236098295846119,0,1698236098294775247,GPS1_Frame,42.33940666666667,-71.09049833333333,28.7,327789.34980197344,4689577.735991278,19.0,T
1698236099295890832,0,1698236099294940710,GPS1_Frame,42.33944,-71.09051333333333,28.7,327788.20508363954,4689581.467785902,19.0,T
1698236100297918672,0,1698236100296930551,GPS1_Frame,42.33946666666667,-71.09052666666666,28.7,327787.1794683962,4689584.455922284,19.0,T
1698236101297718912,0,1698236101296624183,GPS1_Frame,42.33948,-71.09053333333334,28.5,327786.66666113574,4689585.949990546,19.0,T
1698236102298788337,0,1698236102298114538,GPS1_Frame,42.339483333333334,-71.090535,28.0,327786.53845935734,4689586.323507619,19.0,T
1698236103299408124,0,1698236103298590898,GPS1_Frame,42.339483333333334,-71.090535,28.0,327786.53845935734,4689586.323507619,19.0,T
1698236104316585381,0,1698236104315593481,GPS1_Frame,42.339483333333334,-71.090535,28.0,327786.53845935734,4689586.323507619,19.0,T
1698236105300040459,0,1698236105299231290,GPS1_Frame,42.339483333333334,-71.090535,28.0,327786.53845935734,4689586.323507619,19.0,T
1698236106299840586,0,1698236106298982858,GPS1_Frame,42.339483333333334,-71.090535,28.0,327786.53845935734,4689586.323507619,19.0,T
1698236107316462349,0,1698236107315537214,GPS1_Frame,42.339483333333334,-71.090535,28.0,327786.53845935734,4689586.323507619,19.0,T
1698236108300620241,0,1698236108299743652,GPS1_Frame,42.339483333333334,-71.090535,28.1,327786.53845935734,4689586.323507619,19.0,T
1698236109300469232,0,1698236109299527883,GPS1_Frame,42.339483333333334,-71.090535,28.1,327786.53845935734,4689586.323507619,19.0,T
1698236110298854842,0,1698236110297975540,GPS1_Frame,42.339483333333334,-71.090535,28.1,327786.53845935734,4689586.323507619,19.0,T
1698236111315836700,0,1698236111315045356,GPS1_Frame,42.339483333333334,-71.090535,28.1,327786.53845935734,4689586.323507619,19.0,T
1698236112317874380,0,1698236112316809415,GPS1_Frame,42.339483333333334,-71.090535,28.1,327786.53845935734,4689586.323507619,19.0,T
1698236113299726000,0,1698236113298815965,GPS1_Frame,42.339483333333334,-71.090535,28.1,327786.53845935734,4689586.323507619,19.0,T
1698236114298841964,0,1698236114297967672,GPS1_Frame,42.339483333333334,-71.090535,28.1,327786.53845935734,4689586.323507619,19.0,T
1698236115298952988,0,1698236115298055171,GPS1_Frame,42.339483333333334,-71.090535,28.1,327786.53845935734,4689586.323507619,19.0,T
1698236116299444470,0,1698236116298484802,GPS1_Frame,42.339483333333334,-71.090535,28.1,327786.53845935734,4689586.323507619,19.0,T
1698236117299509795,0,1698236117298259973,GPS1_Frame,42.339483333333334,-71.090535,28.1,327786.53845935734,4689586.323507619,19.0,T
1698236118299596282,0,1698236118298525333,GPS1_Frame,42.339483333333334,-71.090535,28.1,327786.53845935734,4689586.323507619,19.0,T
1698236119299563486,0,1698236119298500061,GPS1_Frame,42.339483333333334,-71.090535,28.1,327786.53845935734,4689586.323507619,19.0,T
1698236120300227886,0,1698236120299296140,GPS1_Frame,42.339483333333334,-71.090535,28.1,327786.53845935734,4689586.323507619,19.0,T
1698236121299734480,0,1698236121298636913,GPS1_Frame,42.339483333333334,-71.090535,28.1,327786.53845935734,4689586.323507619,19.0,T
1698236122299115546,0,1698236122298146486,GPS1_Frame,42.339483333333334,-71.090535,28.1,327786.53845935734,4689586.323507619,19.0,T
1698236123299397329,0,1698236123298399686,GPS1_Frame,42.339483333333334,-71.090535,28.1,327786.53845935734,4689586.323507619,19.0,T
1698236124299683283,0,1698236124298739194,GPS1_Frame,42.339483333333334,-71.090535,28.1,327786.53845935734,4689586.323507619,19.0,T
1698236125299349553,0,1698236125298347473,GPS1_Frame,42.339483333333334,-71.090535,28.1,327786.53845935734,4689586.323507619,19.0,T
1698236126298367284,0,1698236126297444105,GPS1_Frame,42.339483333333334,-71.090535,28.1,327786.53845935734,4689586.323507619,19.0,T
1698236127299524494,0,1698236127298606872,GPS1_Frame,42.339483333333334,-71.090535,28.1,327786.53845935734,4689586.323507619,19.0,T
1698236128299090313,0,1698236128298152923,GPS1_Frame,42.339483333333334,-71.090535,28.1,327786.53845935734,4689586.323507619,19.0,T
1698236129299134999,0,1698236129298190593,GPS1_Frame,42.339483333333334,-71.090535,28.1,327786.53845935734,4689586.323507619,19.0,T
1698236130312041102,0,1698236130311177968,GPS1_Frame,42.339483333333334,-71.090535,28.1,327786.53845935734,4689586.323507619,19.0,T
1698236131299012448,0,1698236131298016548,GPS1_Frame,42.339483333333334,-71.090535,28.1,327786.53845935734,4689586.323507619,19.0,T
1698236132299284898,0,1698236132298231363,GPS1_Frame,42.339483333333334,-71.090535,28.1,327786.53845935734,4689586.323507619,19.0,T
1698236133299545621,0,1698236133298595190,GPS1_Frame,42.339483333333334,-71.090535,28.1,327786.53845935734,4689586.323507619,19.0,T
1698236134298813529,0,1698236134297891855,GPS1_Frame,42.339483333333334,-71.090535,28.1,327786.53845935734,4689586.323507619,19.0,T
1698236135298857642,0,1698236135297925233,GPS1_Frame,42.339483333333334,-71.090535,28.0,327786.53845935734,4689586.323507619,19.0,T
1698236136300915005,0,1698236136299716711,GPS1_Frame,42.339483333333334,-71.090535,28.0,327786.53845935734,4689586.323507619,19.0,T
1698236137299711771,0,1698236137298752784,GPS1_Frame,42.339495,-71.09054166666667,27.1,327786.0211023133,4689587.632505227,19.0,T
1698236138298524347,0,1698236138297644853,GPS1_Frame,42.339515,-71.09054833333333,25.9,327785.52649599704,4689589.86685645,19.0,T
1698236139298127668,0,1698236139297052860,GPS1_Frame,42.33954,-71.090555,25.5,327785.0455404093,4689592.656419871,19.0,T
1698236140298933184,0,1698236140298017978,GPS1_Frame,42.339573333333334,-71.090555,25.4,327785.1365428503,4689596.357834179,19.0,T
1698236141299091449,0,1698236141297829151,GPS1_Frame,42.339605,-71.09054333333333,24.9,327786.1841067649,4689599.850548083,19.0,T
1698236142316348609,0,1698236142315465450,GPS1_Frame,42.339636666666664,-71.09051666666667,24.3,327788.46738398005,4689603.312881439,19.0,T
1698236143298408630,0,1698236143297381877,GPS1_Frame,42.339666666666666,-71.090475,24.1,327791.98182267393,4689606.559764688,19.0,T
1698236144298205231,0,1698236144297291755,GPS1_Frame,42.33969166666667,-71.09042333333333,24.2,327796.3064172817,4689609.231184596,19.0,T
1698236145312833161,0,1698236145311964988,GPS1_Frame,42.339713333333336,-71.09036833333333,24.3,327800.89651188406,4689611.525714882,19.0,T
1698236146297376214,0,1698236146296516895,GPS1_Frame,42.33973666666667,-71.090315,24.5,327805.3538516287,4689614.008694106,19.0,T
1698236147297467037,0,1698236147296466588,GPS1_Frame,42.339756666666666,-71.090265,24.5,327809.527486505,4689616.12828507,19.0,T
1698236148298385327,0,1698236148297518491,GPS1_Frame,42.339775,-71.09022166666666,24.5,327813.14736427175,4689618.076308292,19.0,T
1698236149297673543,0,1698236149296551704,GPS1_Frame,42.33979,-71.090185,24.5,327816.20893635234,4689619.667692216,19.0,T
1698236150296482613,0,1698236150295567274,GPS1_Frame,42.339801666666666,-71.090155,24.5,327818.7122036204,4689620.9024361335,19.0,T
1698236151296808306,0,1698236151295803070,GPS1_Frame,42.33981166666667,-71.09013333333333,24.4,327820.52441479143,4689621.96898518,19.0,T
1698236152296822148,0,1698236152295921802,GPS1_Frame,42.33982,-71.09011166666667,24.4,327822.3320762196,4689622.850463966,19.0,T
1698236153296899042,0,1698236153295792102,GPS1_Frame,42.33983,-71.09008833333333,24.3,327824.2815874659,4689623.91363899,19.0,T
1698236154296629358,0,1698236154295739173,GPS1_Frame,42.339843333333334,-71.090055,24.2,327827.0640030154,4689625.326706671,19.0,T
1698236155313251740,0,1698236155312301635,GPS1_Frame,42.339861666666664,-71.09001,24.2,327830.82117196283,4689627.271363889,19.0,T
1698236156296613258,0,1698236156295583009,GPS1_Frame,42.339886666666665,-71.08995,24.1,327835.8322434946,4689629.925933467,19.0,T
1698236157293209791,0,1698236157292255401,GPS1_Frame,42.339913333333335,-71.08988166666667,24.0,327841.53436467936,4689632.748704228,19.0,T
1698236158308544591,0,1698236158307640790,GPS1_Frame,42.33994666666667,-71.089805,24.1,327847.94117977016,4689636.294889975,19.0,T
1698236159292026343,0,1698236159291151762,GPS1_Frame,42.33998,-71.08972166666666,24.2,327854.8971915053,4689639.82758403,19.0,T
1698236160292477329,0,1698236160291532516,GPS1_Frame,42.340015,-71.08963666666666,24.3,327861.9950449164,4689643.54198132,19.0,T
1698236161292683524,0,1698236161291847229,GPS1_Frame,42.340046666666666,-71.089555,24.2,327868.80919326085,4689646.892992293,19.0,T
1698236162308153560,0,1698236162307348251,GPS1_Frame,42.34008,-71.08947333333333,24.1,327875.6278826792,4689650.429080436,19.0,T
1698236163307816195,0,1698236163306986331,GPS1_Frame,42.340111666666665,-71.08939666666667,24.0,327882.03011576005,4689653.790225744,19.0,T
1698236164288702132,0,1698236164287801504,GPS1_Frame,42.34014,-71.089325,23.9,327888.01134613337,4689656.791356389,19.0,T
1698236165288738446,0,1698236165287775278,GPS1_Frame,42.34016833333333,-71.08925833333333,23.8,327893.58066998515,4689659.802612765,19.0,T
1698236166288632691,0,1698236166287532329,GPS1_Frame,42.34019166666667,-71.0892,23.7,327898.4498454967,4689662.275528742,19.0,T
1698236167288395944,0,1698236167287538290,GPS1_Frame,42.34021,-71.089155,23.5,327902.20697360847,4689664.2202231735,19.0,T
1698236168287889510,0,1698236168287137746,GPS1_Frame,42.340223333333334,-71.08912333333333,23.3,327904.852056156,4689665.636694319,19.0,T
1698236169287933767,0,1698236169287047386,GPS1_Frame,42.34023,-71.08910833333333,23.1,327906.1059468803,4689666.3466169285,19.0,T
1698236170287824717,0,1698236170286834478,GPS1_Frame,42.34023166666667,-71.08910333333333,22.9,327906.5223947237,4689666.521567609,19.0,T
1698236171288782080,0,1698236171288005590,GPS1_Frame,42.34023166666667,-71.08910333333333,22.9,327906.5223947237,4689666.521567609,19.0,T
1698236172289131932,0,1698236172288292407,GPS1_Frame,42.34023166666667,-71.08910333333333,22.9,327906.5223947237,4689666.521567609,19.0,T
1698236173288983673,0,1698236173288126230,GPS1_Frame,42.34023166666667,-71.08910333333333,22.9,327906.5223947237,4689666.521567609,19.0,T
1698236174288404242,0,1698236174287562608,GPS1_Frame,42.34023166666667,-71.08910333333333,22.9,327906.5223947237,4689666.521567609,19.0,T
1698236175291265732,0,1698236175290539503,GPS1_Frame,42.34023166666667,-71.08910333333333,22.9,327906.5223947237,4689666.521567609,19.0,T
1698236176290061159,0,1698236176289193391,GPS1_Frame,42.34023166666667,-71.08910333333333,22.9,327906.5223947237,4689666.521567609,19.0,T
1698236177289637748,0,1698236177288795471,GPS1_Frame,42.34023166666667,-71.08910333333333,22.9,327906.5223947237,4689666.521567609,19.0,T
1698236178290164044,0,1698236178289330720,GPS1_Frame,42.34023166666667,-71.08910333333333,22.9,327906.5223947237,4689666.521567609,19.0,T
1698236179290139527,0,1698236179289182901,GPS1_Frame,42.34023166666667,-71.08910333333333,22.9,327906.5223947237,4689666.521567609,19.0,T
1698236180290114128,0,1698236180289100170,GPS1_Frame,42.34023166666667,-71.08910333333333,22.9,327906.5223947237,4689666.521567609,19.0,T
1698236181290685064,0,1698236181289751291,GPS1_Frame,42.34023166666667,-71.08910333333333,22.9,327906.5223947237,4689666.521567609,19.0,T
1698236182290238151,0,1698236182289201498,GPS1_Frame,42.34023166666667,-71.08910166666666,22.7,327906.65969499643,4689666.518194269,19.0,T
1698236183290382621,0,1698236183289552688,GPS1_Frame,42.340235,-71.08909333333334,22.5,327907.35529034515,4689666.871469041,19.0,T
1698236184294475678,0,1698236184293607950,GPS1_Frame,42.34024333333333,-71.08907,22.3,327909.30022877513,4689667.749596329,19.0,T
1698236185293895017,0,1698236185293014049,GPS1_Frame,42.34026,-71.08903333333333,22.2,327912.36630285694,4689669.526091815,19.0,T
1698236186293797128,0,1698236186292734861,GPS1_Frame,42.34028,-71.08898166666667,22.1,327916.6771704152,4689671.642371613,19.0,T
1698236187292811197,0,1698236187291862964,GPS1_Frame,42.34030333333333,-71.08892166666666,21.8,327921.68362914724,4689674.111930148,19.0,T
1698236188292979419,0,1698236188291817188,GPS1_Frame,42.340331666666664,-71.08885333333333,21.9,327927.39022398513,4689677.11983959,19.0,T
1698236189292972099,0,1698236189291923522,GPS1_Frame,42.34036166666667,-71.08877833333334,21.7,327933.6505600598,4689680.299332973,19.0,T
1698236190293061134,0,1698236190292100906,GPS1_Frame,42.34039333333333,-71.08869666666666,21.5,327940.46463609923,4689683.6504117455,19.0,T
1698236191292279092,0,1698236191291426420,GPS1_Frame,42.340428333333335,-71.08860833333334,21.2,327947.83699669293,4689687.358148206,19.0,T
1698236192309368861,0,1698236192308446407,GPS1_Frame,42.340466666666664,-71.088515,21.1,327955.6303400311,4689691.425916457,19.0,T
1698236193292661944,0,1698236193291732311,GPS1_Frame,42.34050666666667,-71.08841666666666,21.0,327963.84011860663,4689695.668647135,19.0,T
1698236194292111539,0,1698236194291265964,GPS1_Frame,42.34055,-71.08831166666667,21.1,327972.6081758913,4689700.268040312,19.0,T
1698236195308555806,0,1698236195307627916,GPS1_Frame,42.34059333333333,-71.088205,21.0,327981.5135208018,4689704.8640722595,19.0,T
1698236196291469109,0,1698236196290628671,GPS1_Frame,42.34063833333333,-71.08809666666667,21.0,327990.56069791305,4689709.6418142095,19.0,T
1698236197291261698,0,1698236197290380716,GPS1_Frame,42.34068333333333,-71.08798666666667,21.0,327999.7451616046,4689714.416195966,19.0,T
1698236198291127642,0,1698236198290089368,GPS1_Frame,42.34072666666667,-71.08787833333334,20.9,328008.78776882775,4689719.008890076,19.0,T
1698236199290757893,0,1698236199289741277,GPS1_Frame,42.34077,-71.08777333333333,20.8,328017.55576564657,4689723.608337926,19.0,T
1698236200289678933,0,1698236200288561820,GPS1_Frame,42.34081,-71.08767,20.7,328026.17736372293,4689727.841026033,19.0,T
1698236201290402363,0,1698236201289356470,GPS1_Frame,42.34085,-71.08757166666666,20.6,328034.3870542939,4689732.083837077,19.0,T
1698236202288840856,0,1698236202287930965,GPS1_Frame,42.34088833333333,-71.08747666666666,20.5,328042.3175934354,4689736.148328189,19.0,T
1698236203287022085,0,1698236203286254405,GPS1_Frame,42.340925,-71.087385,20.4,328049.9689822685,4689740.034498451,19.0,T
1698236204285794511,0,1698236204284805536,GPS1_Frame,42.340961666666665,-71.087295,20.3,328057.4830636758,4689743.924047268,19.0,T
1698236205286002377,0,1698236205285022735,GPS1_Frame,42.34099833333333,-71.08720666666666,20.2,328064.8598378992,4689747.816974199,19.0,T
1698236206310593666,0,1698236206309489965,GPS1_Frame,42.34103833333333,-71.08712333333334,20.1,328071.8337937228,4689752.090160559,19.0,T
1698236207293222195,0,1698236207292319536,GPS1_Frame,42.341076666666666,-71.08704333333333,20.0,328078.5286014589,4689756.185022954,19.0,T
1698236208293171779,0,1698236208292064905,GPS1_Frame,42.341115,-71.08697166666667,20.1,328084.5369095739,4689760.296741039,19.0,T
1698236209310290694,0,1698236209308984518,GPS1_Frame,42.34115166666667,-71.08690333333334,20.3,328090.26607176336,4689764.230132962,19.0,T
1698236210291346325,0,1698236210290451526,GPS1_Frame,42.341185,-71.08683833333333,20.1,328095.7115467775,4689767.80012734,19.0,T
1698236211291417268,0,1698236211290413856,GPS1_Frame,42.34121666666667,-71.08677666666667,20.3,328100.877877923,4689771.191794265,19.0,T
1698236212292005967,0,1698236212291034221,GPS1_Frame,42.341245,-71.08671833333334,20.5,328105.76052410057,4689774.220062419,19.0,T
1698236213309571389,0,1698236213308584451,GPS1_Frame,42.34127333333333,-71.08666333333333,20.5,328110.3685700203,4689777.255072679,19.0,T
1698236214309256751,0,1698236214308333635,GPS1_Frame,42.341296666666665,-71.08662166666667,20.6,328113.8646034179,4689779.76182836,19.0,T
1698236215291051045,0,1698236215290110826,GPS1_Frame,42.34131166666667,-71.086595,20.2,328116.10224513395,4689781.373555709,19.0,T
1698236216290204528,0,1698236216289085388,GPS1_Frame,42.341318333333334,-71.08658166666666,19.8,328117.21879479516,4689782.086884279,19.0,T
1698236217292590771,0,1698236217291521787,GPS1_Frame,42.341318333333334,-71.08658,19.7,328117.35609267955,4689782.083515001,19.0,T
1698236218291251837,0,1698236218290232419,GPS1_Frame,42.341318333333334,-71.08658,19.7,328117.35609267955,4689782.083515001,19.0,T
1698236219291558470,0,1698236219290533542,GPS1_Frame,42.341318333333334,-71.08658,19.7,328117.35609267955,4689782.083515001,19.0,T
1698236220292804556,0,1698236220291760206,GPS1_Frame,42.341318333333334,-71.08658,19.7,328117.35609267955,4689782.083515001,19.0,T
1698236221292624554,0,1698236221291499614,GPS1_Frame,42.341318333333334,-71.08658,19.7,328117.35609267955,4689782.083515001,19.0,T
1698236222290892752,0,1698236222289914131,GPS1_Frame,42.341318333333334,-71.08658,19.7,328117.35609267955,4689782.083515001,19.0,T
1698236223291099004,0,1698236223290061712,GPS1_Frame,42.341318333333334,-71.08658,19.7,328117.35609267955,4689782.083515001,19.0,T
1698236224291455979,0,1698236224290420055,GPS1_Frame,42.341318333333334,-71.08658,19.7,328117.35609267955,4689782.083515001,19.0,T
1698236225291652105,0,1698236225290716886,GPS1_Frame,42.341318333333334,-71.08658,19.7,328117.35609267955,4689782.083515001,19.0,T
1698236226291340539,0,1698236226290477991,GPS1_Frame,42.341318333333334,-71.08658,19.7,328117.35609267955,4689782.083515001,19.0,T
1698236227291393227,0,1698236227290433645,GPS1_Frame,42.341318333333334,-71.08658,19.7,328117.35609267955,4689782.083515001,19.0,T
1698236228291283719,0,1698236228290340423,GPS1_Frame,42.341318333333334,-71.08658,19.7,328117.35609267955,4689782.083515001,19.0,T
1698236229291367902,0,1698236229290483951,GPS1_Frame,42.341318333333334,-71.08658,19.7,328117.35609267955,4689782.083515001,19.0,T
1698236230290633038,0,1698236230289815664,GPS1_Frame,42.341318333333334,-71.08658,19.7,328117.35609267955,4689782.083515001,19.0,T
1698236231290965928,0,1698236231290037155,GPS1_Frame,42.341318333333334,-71.08658,19.7,328117.35609267955,4689782.083515001,19.0,T
1698236232293088798,0,1698236232292135953,GPS1_Frame,42.341318333333334,-71.08658,19.6,328117.35609267955,4689782.083515001,19.0,T
1698236233291139682,0,1698236233290204524,GPS1_Frame,42.341318333333334,-71.08658,19.6,328117.35609267955,4689782.083515001,19.0,T
1698236234290392455,0,1698236234289491891,GPS1_Frame,42.341318333333334,-71.086575,18.8,328117.7679863285,4689782.073407187,19.0,T
1698236235290962426,0,1698236235290018558,GPS1_Frame,42.341323333333335,-71.08656166666667,18.1,328118.8799941194,4689782.601665294,19.0,T
1698236236291785400,0,1698236236290829420,GPS1_Frame,42.34133666666666,-71.08653833333334,17.5,328120.8384965388,4689784.035061877,19.0,T
1698236237291702286,0,1698236237290755510,GPS1_Frame,42.34135166666667,-71.08650833333333,17.0,328123.3507308694,4689785.640053049,19.0,T
1698236238291306915,0,1698236238290458202,GPS1_Frame,42.341368333333335,-71.08647666666667,16.5,328126.00480320014,4689787.426746702,19.0,T
1698236239291202924,0,1698236239290163516,GPS1_Frame,42.34138166666666,-71.08644333333334,17.0,328128.78708925063,4689788.839930824,19.0,T
1698236240290678892,0,1698236240289695024,GPS1_Frame,42.34138166666666,-71.08640833333334,17.3,328131.6703418734,4689788.769181253,19.0,T
1698236241290696612,0,1698236241289783477,GPS1_Frame,42.341375,-71.08638,17.1,328133.9862387732,4689787.971625781,19.0,T
1698236242290265408,0,1698236242289170265,GPS1_Frame,42.34135833333333,-71.08635,17.0,328136.41218722536,4689786.060277865,19.0,T
1698236243307813788,0,1698236243306820869,GPS1_Frame,42.341335,-71.08631166666666,16.7,328139.5064620108,4689783.391803718,19.0,T
1698236244291524609,0,1698236244290313720,GPS1_Frame,42.34130666666667,-71.08626666666666,16.4,328143.13630793977,4689780.154643767,19.0,T
1698236245308449140,0,1698236245307459115,GPS1_Frame,42.341275,-71.086215,16.2,328147.30626747035,4689776.533869614,19.0,T
1698236246286988753,0,1698236246286048650,GPS1_Frame,42.34123666666667,-71.08616,16.1,328151.7326646263,4689772.166078037,19.0,T
1698236247284287598,0,1698236247283420085,GPS1_Frame,42.34119833333333,-71.08609833333334,15.8,328156.70825992053,4689767.784815441,19.0,T
1698236248287465909,0,1698236248286659002,GPS1_Frame,42.34115833333333,-71.086035,15.6,328161.81661926396,4689763.215117484,19.0,T
1698236249286598024,0,1698236249285762548,GPS1_Frame,42.341118333333334,-71.08597166666667,15.3,328166.9249852933,4689758.64542348,19.0,T
1698236250287037018,0,1698236250286120414,GPS1_Frame,42.34108,-71.08591666666666,15.1,328171.3514061596,4689754.277645104,19.0,T
1698236251286991970,0,1698236251286144971,GPS1_Frame,42.341046666666664,-71.08587166666666,14.8,328174.96766186494,4689750.485290544,19.0,T
1698236252287176038,0,1698236252286236524,GPS1_Frame,42.341031666666666,-71.08583666666667,14.6,328177.8100699666,4689748.748924113,19.0,T
1698236253287725899,0,1698236253286785364,GPS1_Frame,42.341026666666664,-71.08581833333334,14.4,328179.3067336891,4689748.156663382,19.0,T
1698236254286944340,0,1698236254285859823,GPS1_Frame,42.341028333333334,-71.08580666666667,14.2,328180.27236318146,4689748.318157864,19.0,T
1698236255287359979,0,1698236255286306858,GPS1_Frame,42.341026666666664,-71.08579833333333,14.1,328180.9543158391,4689748.116247081,19.0,T
1698236256288577537,0,1698236256287506341,GPS1_Frame,42.34102333333333,-71.08579,14.0,328181.6317286596,4689747.729265662,19.0,T
1698236257305521698,0,1698236257304420948,GPS1_Frame,42.34101833333333,-71.08578,14.1,328182.44190023607,4689747.153845629,19.0,T
1698236258286985029,0,1698236258286061525,GPS1_Frame,42.341005,-71.08576166666667,14.1,328183.915865617,4689745.636232393,19.0,T
1698236259306062926,0,1698236259305160284,GPS1_Frame,42.34099333333333,-71.08573,14.2,328186.49276008544,4689744.276746922,19.0,T
1698236260289731395,0,1698236260288649320,GPS1_Frame,42.340983333333334,-71.08569333333334,14.3,328189.4860910048,4689743.092229604,19.0,T
1698236261288312244,0,1698236261287496566,GPS1_Frame,42.340981666666664,-71.08565166666666,14.3,328192.9140165825,4689742.822963777,19.0,T
1698236262289682679,0,1698236262288850784,GPS1_Frame,42.34099,-71.085605,14.4,328196.7810749409,4689743.654020736,19.0,T
1698236263288036792,0,1698236263287199974,GPS1_Frame,42.341008333333335,-71.08555833333334,14.5,328200.67536845466,4689745.595504011,19.0,T
1698236264304779536,0,1698236264303748607,GPS1_Frame,42.341035,-71.08551166666666,14.7,328204.59235605446,4689748.462342894,19.0,T
1698236265305287905,0,1698236265304161787,GPS1_Frame,42.34107,-71.08546166666666,15.0,328208.80663307867,4689752.247802458,19.0,T
1698236266285551705,0,1698236266284474611,GPS1_Frame,42.34111333333333,-71.08540666666667,15.4,328213.45549580065,4689756.94851581,19.0,T
1698236267285783721,0,1698236267284829139,GPS1_Frame,42.341163333333334,-71.08534666666667,16.0,328218.5344027128,4689762.379413055,19.0,T
1698236268284947640,0,1698236268283797979,GPS1_Frame,42.34121833333333,-71.08528166666666,16.7,328224.0388125333,4689768.355424364,19.0,T
1698236269284532928,0,1698236269283674955,GPS1_Frame,42.341278333333335,-71.08521333333333,17.1,328229.8314249895,4689774.879917751,19.0,T
1698236270284350518,0,1698236270283406019,GPS1_Frame,42.34133666666666,-71.08514333333333,17.3,328235.7567862296,4689781.215978011,19.0,T
1698236271282991330,0,1698236271282190799,GPS1_Frame,42.34139666666667,-71.08507333333333,17.9,328241.6866752928,4689787.737113735,19.0,T
1698236272286693591,0,1698236272285609006,GPS1_Frame,42.341453333333334,-71.08500333333333,18.3,328247.60747715225,4689793.8881128,19.0,T
1698236273286122850,0,1698236273285135269,GPS1_Frame,42.34150833333333,-71.08493666666666,18.8,328253.2491358307,4689799.860779147,19.0,T
1698236274286614974,0,1698236274285690546,GPS1_Frame,42.341561666666664,-71.08487166666667,19.3,328258.7489498054,4689805.651745616,19.0,T
1698236275286928044,0,1698236275286038160,GPS1_Frame,42.34161,-71.08480833333333,19.7,328264.09784428054,4689810.890870471,19.0,T
1698236276287048770,0,1698236276286141157,GPS1_Frame,42.341658333333335,-71.08475166666666,20.5,328268.8975423451,4689816.143464486,19.0,T
1698236277286138460,0,1698236277285223484,GPS1_Frame,42.3417,-71.084695,21.0,328273.6790831846,4689820.655778776,19.0,T
1698236278285753557,0,1698236278284847021,GPS1_Frame,42.34174,-71.08464666666667,21.9,328277.76959575893,4689824.999856211,19.0,T
1698236279289486790,0,1698236279288472652,GPS1_Frame,42.341773333333336,-71.08460833333334,23.4,328281.0181727441,4689828.623849579,19.0,T
1698236280290712651,0,1698236280289720296,GPS1_Frame,42.3418,-71.08457833333334,24.7,328283.56211323873,4689831.524391718,19.0,T
1698236281289643827,0,1698236281288625717,GPS1_Frame,42.34182166666667,-71.08455666666667,26.1,328285.405956122,4689833.886552616,19.0,T
1698236282289087366,0,1698236282288020133,GPS1_Frame,42.341831666666664,-71.084545,27.2,328286.3942568718,4689834.973414883,19.0,T
1698236283289787170,0,1698236283288779258,GPS1_Frame,42.341831666666664,-71.08454166666667,26.4,328286.6688503682,4689834.966682904,19.0,T
1698236284287577588,0,1698236284286568403,GPS1_Frame,42.341831666666664,-71.08454166666667,26.3,328286.6688503682,4689834.966682904,19.0,T
1698236285287827143,0,1698236285286926507,GPS1_Frame,42.341831666666664,-71.08454166666667,26.3,328286.6688503682,4689834.966682904,19.0,T
1698236286288007477,0,1698236286287158966,GPS1_Frame,42.341831666666664,-71.08454166666667,26.3,328286.6688503682,4689834.966682904,19.0,T
1698236287287463716,0,1698236287286580085,GPS1_Frame,42.341831666666664,-71.08454166666667,26.4,328286.6688503682,4689834.966682904,19.0,T
1698236288287801680,0,1698236288286899089,GPS1_Frame,42.341831666666664,-71.08454166666667,26.4,328286.6688503682,4689834.966682904,19.0,T
1698236289288490149,0,1698236289287535667,GPS1_Frame,42.341831666666664,-71.08454166666667,26.4,328286.6688503682,4689834.966682904,19.0,T
1698236290288485716,0,1698236290287652254,GPS1_Frame,42.341831666666664,-71.08454166666667,26.4,328286.6688503682,4689834.966682904,19.0,T
1698236291287512934,0,1698236291286705493,GPS1_Frame,42.341831666666664,-71.08454166666667,26.4,328286.6688503682,4689834.966682904,19.0,T
1698236292287850221,0,1698236292286906957,GPS1_Frame,42.341833333333334,-71.08454666666667,27.0,328286.26149735344,4689835.161851588,19.0,T
1698236293303376595,0,1698236293302464723,GPS1_Frame,42.341838333333335,-71.084545,27.9,328286.41240578174,4689835.713697734,19.0,T
1698236294287759253,0,1698236294286799192,GPS1_Frame,42.34185166666666,-71.08453,28.9,328287.6843739467,4689837.163969617,19.0,T
1698236295286489331,0,1698236295285562515,GPS1_Frame,42.341875,-71.08450666666667,29.9,328289.67004785675,4689839.707836316,19.0,T
1698236296304672261,0,1698236296303739070,GPS1_Frame,42.341901666666665,-71.08448333333334,30.6,328291.6647945668,4689842.6218449725,19.0,T
1698236297286944115,0,1698236297285972595,GPS1_Frame,42.341928333333335,-71.08446,31.5,328293.65953968477,4689845.53585416,19.0,T
1698236298290188688,0,1698236298289259433,GPS1_Frame,42.34195,-71.08442833333334,31.2,328296.32715464954,4689847.877822679,19.0,T
1698236299290604814,0,1698236299289838075,GPS1_Frame,42.34197833333333,-71.084395,31.3,328299.1502119348,4689850.956709275,19.0,T
1698236300289610144,0,1698236300288601398,GPS1_Frame,42.34201,-71.08436166666667,31.2,328301.98234047607,4689854.405738381,19.0,T
1698236301289230132,0,1698236301288277387,GPS1_Frame,42.342043333333336,-71.084325,31.4,328305.0935956467,4689858.033108002,19.0,T
1698236302288775020,0,1698236302287809371,GPS1_Frame,42.34207833333333,-71.08428333333333,31.6,328308.6212729878,4689861.835452919,19.0,T
1698236303288587649,0,1698236303287705183,GPS1_Frame,42.342115,-71.08424166666667,31.7,328312.153483163,4689865.822870238,19.0,T
1698236304290635579,0,1698236304289746284,GPS1_Frame,42.342146666666665,-71.08420333333333,31.7,328315.3974877775,4689869.261807971,19.0,T
1698236305290488663,0,1698236305289531230,GPS1_Frame,42.342175,-71.08417,31.1,328318.22052841476,4689872.34070185,19.0,T
1698236306288745631,0,1698236306287903547,GPS1_Frame,42.34220833333333,-71.08415333333333,30.3,328319.68421649205,4689876.00846246,19.0,T
1698236307289376382,0,1698236307288542985,GPS1_Frame,42.342245,-71.08415,29.5,328320.05860916624,4689880.073287568,19.0,T
1698236308307679803,0,1698236308306765317,GPS1_Frame,42.34228,-71.08416,28.9,328319.3300990497,4689883.9799649,19.0,T
1698236309287291402,0,1698236309286345720,GPS1_Frame,42.34231166666667,-71.08417833333333,28.2,328317.9060385097,4689887.533327899,19.0,T
1698236310304582098,0,1698236310303455114,GPS1_Frame,42.34233833333333,-71.08421,27.8,328315.3700048705,4689890.558402641,19.0,T
1698236311285990302,0,1698236311285112857,GPS1_Frame,42.34236833333333,-71.08425,27.1,328312.15656881675,4689893.970447399,19.0,T
1698236312286470257,0,1698236312285643815,GPS1_Frame,42.34240333333333,-71.08429333333333,26.8,328308.682155103,4689897.944437097,19.0,T
1698236313286424243,0,1698236313285498619,GPS1_Frame,42.34243,-71.08433,26.4,328305.73424305307,4689900.979612392,19.0,T
1698236314289293768,0,1698236314288268804,GPS1_Frame,42.34245166666667,-71.08435666666666,26.1,328303.5964952817,4689903.439382617,19.0,T
1698236315306360959,0,1698236315305094957,GPS1_Frame,42.342461666666665,-71.08437166666667,25.7,328302.3880581457,4689904.580098346,19.0,T
1698236316307656769,0,1698236316306895732,GPS1_Frame,42.34246666666667,-71.08437833333333,25.4,328301.8524874075,4689905.14877343,19.0,T
1698236317290778135,0,1698236317289813756,GPS1_Frame,42.34246666666667,-71.08438,25.4,328301.71519204736,4689905.152139161,19.0,T
1698236318288984163,0,1698236318288044691,GPS1_Frame,42.34246666666667,-71.08438,25.4,328301.71519204736,4689905.152139161,19.0,T
1698236319290607307,0,1698236319289731025,GPS1_Frame,42.34246666666667,-71.08438,25.5,328301.71519204736,4689905.152139161,19.0,T
1698236320290777084,0,1698236320289693117,GPS1_Frame,42.34246666666667,-71.08438,25.5,328301.71519204736,4689905.152139161,19.0,T
1698236321290480001,0,1698236321289548873,GPS1_Frame,42.34246666666667,-71.08438,25.5,328301.71519204736,4689905.152139161,19.0,T
1698236322290656414,0,1698236322289748430,GPS1_Frame,42.34246666666667,-71.08438,25.5,328301.71519204736,4689905.152139161,19.0,T
1698236323290528350,0,1698236323289737939,GPS1_Frame,42.34246666666667,-71.08438,25.5,328301.71519204736,4689905.152139161,19.0,T
1698236324290689810,0,1698236324289734125,GPS1_Frame,42.34246666666667,-71.08438,25.5,328301.71519204736,4689905.152139161,19.0,T
1698236325290958198,0,1698236325289980649,GPS1_Frame,42.34246666666667,-71.08438,25.6,328301.71519204736,4689905.152139161,19.0,T
1698236326291055293,0,1698236326290165662,GPS1_Frame,42.34246666666667,-71.08438833333334,25.7,328301.0287152296,4689905.168967856,19.0,T
1698236327291523913,0,1698236327290623426,GPS1_Frame,42.342468333333336,-71.08439833333334,25.7,328300.20948001463,4689905.37423311,19.0,T
1698236328291867711,0,1698236328291069507,GPS1_Frame,42.342468333333336,-71.084405,25.5,328299.6602985752,4689905.387696179,19.0,T
1698236329292495204,0,1698236329291582822,GPS1_Frame,42.342468333333336,-71.084405,25.5,328299.6602985752,4689905.387696179,19.0,T
1698236330291120028,0,1698236330290331840,GPS1_Frame,42.342468333333336,-71.084405,25.6,328299.6602985752,4689905.387696179,19.0,T
1698236331291207432,0,1698236331290280342,GPS1_Frame,42.342468333333336,-71.08440666666667,25.6,328299.52300321637,4689905.391061953,19.0,T
1698236332291359647,0,1698236332290576219,GPS1_Frame,42.342468333333336,-71.08440666666667,25.6,328299.52300321637,4689905.391061953,19.0,T
1698236333291650867,0,1698236333290802240,GPS1_Frame,42.342468333333336,-71.08440666666667,25.6,328299.52300321637,4689905.391061953,19.0,T
1698236334291883427,0,1698236334291016101,GPS1_Frame,42.342468333333336,-71.08440666666667,25.6,328299.52300321637,4689905.391061953,19.0,T
1698236335291574962,0,1698236335290668010,GPS1_Frame,42.342468333333336,-71.08440666666667,25.6,328299.52300321637,4689905.391061953,19.0,T
1698236336291698270,0,1698236336290621757,GPS1_Frame,42.342468333333336,-71.08440666666667,25.6,328299.52300321637,4689905.391061953,19.0,T
1698236337291727541,0,1698236337290812253,GPS1_Frame,42.342468333333336,-71.08440666666667,25.6,328299.52300321637,4689905.391061953,19.0,T
1698236338291235379,0,1698236338290308952,GPS1_Frame,42.342468333333336,-71.08440666666667,25.6,328299.52300321637,4689905.391061953,19.0,T
1698236339291270634,0,1698236339290396451,GPS1_Frame,42.342468333333336,-71.08440666666667,25.6,328299.52300321637,4689905.391061953,19.0,T
1698236340292051768,0,1698236340291170835,GPS1_Frame,42.342468333333336,-71.08440666666667,25.6,328299.52300321637,4689905.391061953,19.0,T
